storeid,searchid,wide_area,basic_area,keyword,storename,category,rating,review_cnt,address,url,img_url,visit_type,lng,lat,review_participant,honbab_cnt
93_1,93,경기도,덕양구,경기도 덕양구 놀곳,꽃우물 블루베리 농장,주말농장,,10,경기 고양시 덕양구 대주로84번길 190-42,https://map.naver.com/p/entry/place/1706793403?placePath=%2Fhome,https://search.pstatic.net/common/?autoRotate=true&type=w560_sharpen&src=https%3A%2F%2Fldb-phinf.pstatic.net%2F20200707_297%2F1594128803335nSCPl_JPEG%2FcPtrHVBT8GnOGgu8XXqvRoQ9.jpg,혼놀,126.8264973,37.6410863,,
93_2,93,경기도,덕양구,경기도 덕양구 놀곳,아쿠아필드 고양,워터파크,4.48,"17,265",경기 고양시 덕양구 고양대로 1955 스타필드 고양 4층,https://map.naver.com/p/entry/place/1555184750?placePath=%2Fhome,https://search.pstatic.net/common/?autoRotate=true&type=w560_sharpen&src=https%3A%2F%2Fldb-phinf.pstatic.net%2F20250723_124%2F17532376025986ffkU_JPEG%2F%25B3%25D7%25C0%25CC%25B9%25F6_%25C7%25C3%25B7%25B9%25C0%25CC%25BD%25BA.jpg,혼놀,126.8963730,37.6485370,,
93_3,93,경기도,덕양구,경기도 덕양구 놀곳,통일워터파크,워터파크,4.38,279,경기 고양시 덕양구 대양로 25,https://map.naver.com/p/entry/place/1625114161?placePath=%2Fhome,https://search.pstatic.net/common/?autoRotate=true&type=w560_sharpen&src=http%3A%2F%2Fblogfiles.naver.net%2FMjAxODA3MTdfMTEy%2FMDAxNTMxODIxOTA4NjQx.QL4Qf56uc2mZVjsQfEND7hWT46wt09zaHnY65uN_yiAg.x1FiT80lL5Ab9KAqpPEu2oivlDXG8d3D5IzyjjZLTSYg.JPEG.songi8145%2Foutput_227683906.jpg,혼놀,126.8755003,37.6894068,,
93_4,93,경기도,덕양구,경기도 덕양구 놀곳,고양어린이박물관,박물관,4.31,516,경기 고양시 덕양구 화중로 26 고양어린이박물관,https://map.naver.com/p/entry/place/33997463?placePath=%2Fhome,https://search.pstatic.net/common/?autoRotate=true&type=w560_sharpen&src=https%3A%2F%2Fldb-phinf.pstatic.net%2F20250120_242%2F17373616924082jdUK_JPEG%2F2025%25B3%25E2%25B3%25D7%25C0%25CC%25B9%25F6%25C7%25C3%25B7%25B9%25C0%25CC%25BD%25BA%25BB%25E7%25C1%25F8.jpg,혼놀,126.8314982,37.6295243,,
93_5,93,경기도,덕양구,경기도 덕양구 놀곳,고양워터파크,워터파크,,208,경기 고양시 덕양구 호국로 1475 고양워터파크,https://map.naver.com/p/entry/place/1220275257?placePath=%2Fhome,https://search.pstatic.net/common/?autoRotate=true&type=w560_sharpen&src=https%3A%2F%2Fldb-phinf.pstatic.net%2F20240708_133%2F1720431580251hlt3J_JPEG%2F20240707_112302.jpg,혼놀,126.8991380,37.6832870,,
93_6,93,경기도,덕양구,경기도 덕양구 놀곳,쥬쥬랜드,동물원,4.35,"4,393",경기 고양시 덕양구 원당로458번길 7-42 쥬쥬랜드,https://map.naver.com/p/entry/place/1008136590?placePath=%2Fhome,https://search.pstatic.net/common/?autoRotate=true&type=w560_sharpen&src=https%3A%2F%2Fldb-phinf.pstatic.net%2F20250604_169%2F1749023238266MwCtr_JPEG%2FKakaoTalk_20250604_164616458.jpg,혼놀,126.8543740,37.6895077,,
93_7,93,경기도,덕양구,경기도 덕양구 놀곳,한국항공대학교 항공우주박물관,박물관,,95,경기 고양시 덕양구 항공대학로 76-9 한국항공대학교 항공우주박물관,https://map.naver.com/p/entry/place/11608349?placePath=%2Fhome,https://search.pstatic.net/common/?autoRotate=true&type=w560_sharpen&src=https%3A%2F%2Fldb-phinf.pstatic.net%2F20220928_161%2F1664330649763ET0cz_JPEG%2F%25C7%25D7%25B0%25F8%25B4%25EB%25C0%25FC%25B0%25E6%25BB%25E7%25C1%25F8_2%25C2%25F7_2.jpg,혼놀,126.8657833,37.6001016,,
93_8,93,경기도,덕양구,경기도 덕양구 놀곳,북한산,산,,211,경기 고양시 덕양구 대서문길 375,https://map.naver.com/p/entry/place/11491416?placePath=%2Fhome,https://search.pstatic.net/common/?autoRotate=true&type=w560_sharpen&src=https%3A%2F%2Fldb-phinf.pstatic.net%2F20150831_19%2F1440992261985dEXsH_JPEG%2F11491416_0.jpg,혼놀,126.9780617,37.6587386,,
93_9,93,경기도,덕양구,경기도 덕양구 놀곳,데이캠파크 고양점,체험여행,,24,경기 고양시 덕양구 호국로1907번길 202,https://map.naver.com/p/entry/place/1607165736?placePath=%2Fhome,https://search.pstatic.net/common/?autoRotate=true&type=w560_sharpen&src=https%3A%2F%2Fldb-phinf.pstatic.net%2F20230728_191%2F16905091342934FKXc_JPEG%2F%25C4%25AB%25C5%25E5%25BB%25F3%25B4%25E3.jpg,혼놀,126.9234384,37.7188180,,
93_10,93,경기도,덕양구,경기도 덕양구 놀곳,배다골 테마파크,테마파크,4.2,"1,775",경기 고양시 덕양구 배다골길 131,https://map.naver.com/p/entry/place/787187760?placePath=%2Fhome,https://search.pstatic.net/common/?autoRotate=true&type=w560_sharpen&src=https%3A%2F%2Fnaverbooking-phinf.pstatic.net%2F20240522_109%2F171635926461148Aq0_JPEG%2F%25B9%25E8%25B4%25D9%25B0%25F1_%25C0%25CC%25C0%25FC.jpg,혼놀,126.8483459,37.6300464,,
93_11,93,경기도,덕양구,경기도 덕양구 놀곳,유진민속박물관,박물관,,21,경기 고양시 덕양구 고양대로1670번길 78-11,https://map.naver.com/p/entry/place/13481655?placePath=%2Fhome,https://search.pstatic.net/common/?autoRotate=true&type=w560_sharpen&src=https%3A%2F%2Fldb-phinf.pstatic.net%2F20230905_165%2F1693878425542dvz4V_JPEG%2F%25B0%25ED%25BE%25E7_%25C0%25AF%25C1%25F8%25B9%25CE%25BC%25D3%25B9%25DA%25B9%25B0%25B0%25FC_%25C0%25B1_20201216_11.jpg,혼놀,126.8659480,37.6460402,,
93_12,93,경기도,덕양구,경기도 덕양구 놀곳,중흥사,템플스테이,,186,경기 고양시 덕양구 대서문길 393,https://map.naver.com/p/entry/place/423890559?placePath=%2Fhome,https://search.pstatic.net/common/?autoRotate=true&type=w560_sharpen&src=http%3A%2F%2Fblogfiles.naver.net%2FMjAxNzA2MzBfMjE2%2FMDAxNDk4ODEyNzQ2MTIy.NR_RlTxbWmFFtCDdSB6poez79fNLRB0ANM2mf7vwctkg.csMJVJuGSVbTD3TYokASULHr9ckJlTON_PVZjElSpwAg.JPEG.sesang1970%2F20170615_104818.jpg,혼놀,126.9772480,37.6455300,,
93_13,93,경기도,덕양구,경기도 덕양구 놀곳,서삼릉,세계문화유산,4.3,144,경기 고양시 덕양구 서삼릉길 233-126,https://map.naver.com/p/entry/place/11663860?placePath=%2Fhome,https://search.pstatic.net/common/?autoRotate=true&type=w560_sharpen&src=https%3A%2F%2Fldb-phinf.pstatic.net%2F20150831_298%2F1441013606234PP7fb_JPEG%2F116167535124909_0.jpg,혼놀,,,,
93_14,93,경기도,덕양구,경기도 덕양구 놀곳,서서울 어린이천문대,천문대,,34,경기 고양시 덕양구 용두로 19,https://map.naver.com/p/entry/place/1404158045?placePath=%2Fhome,https://search.pstatic.net/common/?autoRotate=true&quality=95&type=w750&src=https%3A%2F%2Fldb-phinf.pstatic.net%2F20240419_259%2F17135227228442Nz2g_JPEG%2F%25C3%25B5%25B9%25AE%25B5%25BC%25B0%25FA_%25B8%25C1%25BF%25F8%25B0%25E6.jpg,혼놀,126.8834934,37.6236127,,
93_15,93,경기도,덕양구,경기도 덕양구 놀곳,한국마사회 원당목장,테마공원,,140,경기 고양시 덕양구 서삼릉길 233-112,https://map.naver.com/p/entry/place/11882817?placePath=%2Fhome,https://search.pstatic.net/common/?autoRotate=true&type=w560_sharpen&src=https%3A%2F%2Fldb-phinf.pstatic.net%2F20150831_300%2F1440993603596ormbd_JPEG%2F11882817_0.jpg,혼놀,126.8669382,37.6627484,,
93_16,93,경기도,덕양구,경기도 덕양구 놀곳,행주산성 역사공원,근린공원,,203,경기 고양시 덕양구 행주외동 140-8,https://map.naver.com/p/entry/place/19043778?placePath=%2Fhome,https://search.pstatic.net/common/?autoRotate=true&type=w560_sharpen&src=https%3A%2F%2Fldb-phinf.pstatic.net%2F20230124_241%2F1674499930341LAjzd_JPEG%2F20230120_095624.jpg,혼놀,126.8196065,37.5985592,,
93_17,93,경기도,덕양구,경기도 덕양구 놀곳,고양가와지볍씨박물관,박물관,,1,경기 고양시 덕양구 고양대로 1695,https://map.naver.com/p/entry/place/34585567?placePath=%2Fhome,https://search.pstatic.net/common/?autoRotate=true&type=w560_sharpen&src=http%3A%2F%2Fblogfiles.naver.net%2FMjAxNzEyMTJfMTUx%2FMDAxNTEzMDgwMjI2NDg0.CZBlnx13dICrzjrDWn7ZUSsqB7iIEyNSxfj6Yxv9CUsg.TiW9uCA7DT6kiF2pDhd-_gqRsRqD1wzgSSJt27s-PpUg.JPEG.dayee0%2F1.JPG,혼놀,126.8697116,37.6495084,,
93_18,93,경기도,덕양구,경기도 덕양구 놀곳,고양한강공원,시민공원,,70,경기 고양시 덕양구 행주외동 500-6,https://map.naver.com/p/entry/place/1554682448?placePath=%2Fhome,https://search.pstatic.net/common/?autoRotate=true&type=w560_sharpen&src=https%3A%2F%2Fsearch.pstatic.net%2Fcommon%2F%3FautoRotate%3Dtrue%26quality%3D95%26type%3Dw750%26src%3Dhttps%253A%252F%252Fldb-phinf.pstatic.net%252F20220609_139%252F1654745688286ItOqB_JPEG%252F1AD40DC5-D897-4356-B8A6-B8F0B8F35E71.jpeg,혼놀,126.8141908,37.6037396,,
93_19,93,경기도,덕양구,경기도 덕양구 놀곳,원두막주말농장,주말농장,,18,경기 고양시 덕양구 북한산로 473-7,https://map.naver.com/p/entry/place/19579114?placePath=%2Fhome,https://search.pstatic.net/common/?autoRotate=true&type=w560_sharpen&src=https%3A%2F%2Fldb-phinf.pstatic.net%2F20150831_42%2F1441008965014m1qm6_JPEG%2F166256448825091_0.jpg,혼놀,126.9538053,37.6670355,,
93_20,93,경기도,덕양구,경기도 덕양구 놀곳,성라피크닉장,테마공원,,5,경기 고양시 덕양구 충장로 380,https://map.naver.com/p/entry/place/1893483062?placePath=%2Fhome,https://search.pstatic.net/common/?autoRotate=true&type=w560_sharpen&src=https%3A%2F%2Fldb-phinf.pstatic.net%2F20220616_66%2F1655361325826i6kCz_JPEG%2F%25BE%25C8%25B3%25BB%25C6%25C7.jpg,혼놀,126.8398412,37.6437936,,
93_21,93,경기도,덕양구,경기도 덕양구 놀곳,지도공원,근린공원,,3,경기 고양시 덕양구 지도로80번길 38,https://map.naver.com/p/entry/place/19041644?placePath=%2Fhome,https://search.pstatic.net/common/?autoRotate=true&type=w560_sharpen&src=https%3A%2F%2Fldb-phinf.pstatic.net%2F20200105_69%2F1578195039300PP7fI_JPEG%2FpmmRa1GDgO_jv0hDVAoTjrpo.jpg,혼놀,126.8265834,37.6264464,,
93_22,93,경기도,덕양구,경기도 덕양구 놀곳,흥국사 고양 템플스테이,템플스테이,,20,경기 고양시 덕양구 흥국사길 82,https://map.naver.com/p/entry/place/534668506?placePath=%2Fhome,,혼놀,126.9406647,37.6631760,,
93_23,93,경기도,덕양구,경기도 덕양구 놀곳,화정중앙공원,근린공원,,410,경기 고양시 덕양구 화신로 266-1,https://map.naver.com/p/entry/place/20332845?placePath=%2Fhome,https://search.pstatic.net/common/?autoRotate=true&type=w560_sharpen&src=http%3A%2F%2Fblogfiles.naver.net%2FMjAyMzEyMTNfMTI3%2FMDAxNzAyNDI2OTQ4NTk3.wguKajDYE0xdx5rnfCWbdwqxV4iSFwmBhcp13F7ueMgg.MtI1uUz3DAfufcJeM6NdjHpXHfHuhXvI3Ll6sPPdvV4g.PNG,혼놀,126.8313749,37.6316339,,
93_24,93,경기도,덕양구,경기도 덕양구 놀곳,시민안전체험교실,"체험,홍보관",,16,경기 고양시 덕양구 화신로 214,https://map.naver.com/p/entry/place/37240496?placePath=%2Fhome,,혼놀,126.8377314,37.6300320,,
93_25,93,경기도,덕양구,경기도 덕양구 놀곳,행주산성,성곽명,4.41,375,경기 고양시 덕양구 행주내동 산26-1,https://map.naver.com/p/entry/place/13219297?placePath=%2Fhome,https://search.pstatic.net/common/?autoRotate=true&type=w560_sharpen&src=https%3A%2F%2Fldb-phinf.pstatic.net%2F20150831_226%2F14410086417008zTSU_JPEG%2F106976554155681_0.jpg,혼놀,126.8264492,37.5966383,,
93_26,93,경기도,덕양구,경기도 덕양구 놀곳,앵봉산,산,,5,경기 고양시 덕양구 서오릉로 334-32 서오릉관리사무소 및 역사문화관,https://map.naver.com/p/entry/place/37677119?placePath=%2Fhome,https://search.pstatic.net/common/?autoRotate=true&type=w560_sharpen&src=http%3A%2F%2Fblogfiles.naver.net%2F20160508_55%2Fkjh8137002_1462672895146swEUx_JPEG%2F20160508_074646.jpg,혼놀,126.9084183,37.6295917,,
93_27,93,경기도,덕양구,경기도 덕양구 놀곳,충장근린체육공원,"도시,테마공원",,2,경기 고양시 덕양구 행주내동 636,https://map.naver.com/p/entry/place/19043687?placePath=%2Fhome,https://search.pstatic.net/common/?autoRotate=true&type=w560_sharpen&src=http%3A%2F%2Fblogfiles.naver.net%2FMjAyMjA4MDhfMTE4%2FMDAxNjU5OTM5NjA3NDg3.NNaYoOjkIutb3IUQapZi3JJ6M83PLwO0m41qpm_zIR8g.84YwaHdunL18garvAEVuQv9-Gd-C7Nav_smS4DWLlzQg.JPEG.letsgoyang%2F8.jpg,혼놀,126.8239653,37.6142245,,
93_28,93,경기도,덕양구,경기도 덕양구 놀곳,최영장군묘,"릉,묘,총",,7,경기 고양시 덕양구 대자동 산70-2,https://map.naver.com/p/entry/place/20095354?placePath=%2Fhome,https://search.pstatic.net/common/?autoRotate=true&type=w560_sharpen&src=http%3A%2F%2Fblogfiles1.naver.net%2F20140623_64%2Flyu1388_1403498586993fMYwq_JPEG%2FDPP_0013.JPG,혼놀,,,,
93_29,93,경기도,덕양구,경기도 덕양구 놀곳,북한산둘레길12구간(충의길),도보코스,,6,경기 고양시 덕양구 지축동 산1-1,https://map.naver.com/p/entry/place/20072078?placePath=%2Fhome,https://search.pstatic.net/common/?autoRotate=true&type=w560_sharpen&src=http%3A%2F%2Fblogfiles.naver.net%2FMjAxODA0MDRfMTc3%2FMDAxNTIyODE5MDg5MDc1.a-HgvV9Eet1tq9NJKiOe1Wqm0Ki-RS4bXvZ7JcRMwfEg.KYVY7Uw9ojL7zaEc4f0XXVO4VeOYD6sEkWe8qRNlDb8g.JPEG.ekkoom%2FIMG_4268.jpg,혼놀,126.9645800,37.6895717,,
93_30,93,경기도,덕양구,경기도 덕양구 놀곳,성라공원,근린공원,,2,경기 고양시 덕양구 어울림로 33,https://map.naver.com/p/entry/place/19034423?placePath=%2Fhome,,혼놀,126.8368736,37.6497974,,
93_31,93,경기도,덕양구,경기도 덕양구 놀곳,고양누리길5코스(행주산성역사누리길),도보코스,,7,경기 고양시 덕양구 행주외동 산33,https://map.naver.com/p/entry/place/35795223?placePath=%2Fhome,https://search.pstatic.net/common/?autoRotate=true&type=w560_sharpen&src=http%3A%2F%2Fblogfiles.naver.net%2FMjAxNzExMDRfNjUg%2FMDAxNTA5NzM0NTYyMjQ3.ZRSVOKDHnYMWttguxGHOfoWbQQC0fe-6QeI_MGJxDhQg.-oogb0PEx3hxWXYoXGpVsZjE6slf-OuAPGvaT75prj0g.JPEG.fillette01%2Foutput_2312078995.JPG,혼놀,126.8268453,37.5962080,,
93_32,93,경기도,덕양구,경기도 덕양구 놀곳,북한산성,성곽명,,16,경기 고양시 덕양구 북한산로384번길 19-40,https://map.naver.com/p/entry/place/11491417?placePath=%2Fhome,https://search.pstatic.net/common/?autoRotate=true&type=w560_sharpen&src=https%3A%2F%2Fldb-phinf.pstatic.net%2F20150831_262%2F1440992262368b1hlA_JPEG%2F11491417_0.jpg,혼놀,,,,
93_33,93,경기도,덕양구,경기도 덕양구 놀곳,은빛공원,근린공원,,17,경기 고양시 덕양구 은빛로77번길 14,https://map.naver.com/p/entry/place/36143277?placePath=%2Fhome,,혼놀,126.8367019,37.6387135,,
93_34,93,경기도,덕양구,경기도 덕양구 놀곳,북한산둘레길11구간(효자길),도보코스,,2,경기 고양시 덕양구 효자동 88-1,https://map.naver.com/p/entry/place/20072074?placePath=%2Fhome,https://search.pstatic.net/common/?autoRotate=true&type=w560_sharpen&src=http%3A%2F%2Fblogfiles.naver.net%2FMjAxNzEwMDlfMjA3%2FMDAxNTA3NTI3Mzg4MDM1.dOJ2SmmOrsnf6PHFG-NexgY7yz-ef7yhHUhdX2iSPCMg.R5vxqm7-Hgvk3enSUIo1rkELHoDZtuW6OBmLcbuePEQg.JPEG.omnivore7%2F20171007_094915.jpg,혼놀,126.9570622,37.6703617,,
93_35,93,경기도,덕양구,경기도 덕양구 놀곳,고양대덕생태공원,"자연,생태공원",,4,경기 고양시 덕양구 덕은동 579-1,https://map.naver.com/p/entry/place/1110890456?placePath=%2Fhome,,혼놀,126.8610968,37.5771024,,
93_36,93,경기도,덕양구,경기도 덕양구 놀곳,고려 공양왕릉,"릉,묘,총",,8,경기 고양시 덕양구 원당동 산65-6,https://map.naver.com/p/entry/place/20107830?placePath=%2Fhome,https://search.pstatic.net/common/?autoRotate=true&type=w560_sharpen&src=http%3A%2F%2Fblogfiles14.naver.net%2F20140805_125%2Fohmark_140724583460839iYp_JPEG%2FIMG_1578.jpg,혼놀,126.8388701,37.6796804,,
93_37,93,경기도,덕양구,경기도 덕양구 놀곳,평화누리길4코스(행주나루길),도보코스,,51,경기 고양시 덕양구 신평동 38-1,https://map.naver.com/p/entry/place/31399589?placePath=%2Fhome,https://search.pstatic.net/common/?autoRotate=true&type=w560_sharpen&src=http%3A%2F%2Fblogfiles.naver.net%2FMjAxOTAzMTZfMzEg%2FMDAxNTUyNzI1Njc1NTcz.qCuacS20IeHeCnChw9s_sREiMRS1jZdr3wJ-5SH4fvMg.lZ7upKUx-RmmwVDXHnKzJ457R8HooiCPNPbKckIEwXQg.JPEG.songpy80%2F20190316_075345.jpg,혼놀,126.7895868,37.6224640,,
93_38,93,경기도,덕양구,경기도 덕양구 놀곳,성사체육공원,"도시,테마공원",,8,경기 고양시 덕양구 성사동 552,https://map.naver.com/p/entry/place/19035005?placePath=%2Fhome,,혼놀,126.8430408,37.6622370,,
93_39,93,경기도,덕양구,경기도 덕양구 놀곳,도래울바람물공원,근린공원,,5,경기 고양시 덕양구 도내동 980,https://map.naver.com/p/entry/place/1530668105?placePath=%2Fhome,,혼놀,126.8742158,37.6281422,,
93_40,93,경기도,덕양구,경기도 덕양구 놀곳,차장공원,근린공원,,9,경기 고양시 덕양구 충경로 57-2,https://map.naver.com/p/entry/place/19044704?placePath=%2Fhome,,혼놀,126.8357250,37.6155030,,
93_41,93,경기도,덕양구,경기도 덕양구 놀곳,덕수근린공원,근린공원,,9,경기 고양시 덕양구 덕수천1로 14,https://map.naver.com/p/entry/place/1266473083?placePath=%2Fhome,,혼놀,126.8787214,37.6460374,,
93_42,93,경기도,덕양구,경기도 덕양구 놀곳,관산근린공원,근린공원,,1,경기 고양시 덕양구 통일로768번길 66-3,https://map.naver.com/p/entry/place/1593558826?placePath=%2Fhome,,혼놀,126.8658741,37.6899085,,
93_43,93,경기도,덕양구,경기도 덕양구 놀곳,화정문화의거리,"거리,골목",,5,경기 고양시 덕양구 화정동,https://map.naver.com/p/entry/place/20743675?placePath=%2Fhome,,혼놀,126.8323299,37.6332609,,
93_44,93,경기도,덕양구,경기도 덕양구 놀곳,마상근린공원,근린공원,,5,경기 고양시 덕양구 원당로69번길 46,https://map.naver.com/p/entry/place/19032787?placePath=%2Fhome,,혼놀,126.8321846,37.6605413,,
93_45,93,경기도,덕양구,경기도 덕양구 놀곳,고양밥할머니공원,근린공원,,8,경기 고양시 덕양구 동송로 6 고양대로 2202 일원,https://map.naver.com/p/entry/place/1524174185?placePath=%2Fhome,,혼놀,126.8998720,37.6471080,,
93_46,93,경기도,덕양구,경기도 덕양구 놀곳,화전동 벽화마을,체험마을,,5,경기 고양시 덕양구 중앙로78번안길 88,https://map.naver.com/p/entry/place/1250704780?placePath=%2Fhome,https://search.pstatic.net/common/?autoRotate=true&type=w560_sharpen&src=http%3A%2F%2Fblogfiles.naver.net%2FMjAxOTEwMDRfNDMg%2FMDAxNTcwMTI0MDg2OTIy.CtKYbObkA7JzJ0XEFCvtcyppAbwm01DOOP3l8Zv7rb0g.xinTrMBhTzoxNmG4iIqmKZc4G9kS3B0JPUucyZ7uVpcg.JPEG.iamkoala%2F%25B5%25BF%25C8%25AD%25B1%25E63.JPG,혼놀,126.8766268,37.6004032,,
93_47,93,경기도,덕양구,경기도 덕양구 놀곳,강매석교공원,근린공원,,2,경기 고양시 덕양구 강매동 317-23,https://map.naver.com/p/entry/place/1745927910?placePath=%2Fhome,https://search.pstatic.net/common/?autoRotate=true&quality=95&type=w750&src=https%3A%2F%2Fldb-phinf.pstatic.net%2F20241025_233%2F1729787855043jalID_JPEG%2F1000039348.jpg,혼놀,126.8391561,37.5982229,,
93_48,93,경기도,덕양구,경기도 덕양구 놀곳,동산꽃맞이공원,근린공원,,3,경기 고양시 덕양구 동산동 363,https://map.naver.com/p/entry/place/1149816190?placePath=%2Fhome,,혼놀,126.8875530,37.6453750,,
93_49,93,경기도,덕양구,경기도 덕양구 놀곳,서두물공원,근린공원,,1,경기 고양시 덕양구 중앙로 400-2,https://map.naver.com/p/entry/place/19418731?placePath=%2Fhome,,혼놀,126.8507435,37.6162402,,
93_50,93,경기도,덕양구,경기도 덕양구 놀곳,송강공릉천공원,근린공원,,2,경기 고양시 덕양구 신원동,https://map.naver.com/p/entry/place/1623476320?placePath=%2Fhome,,혼놀,126.8824320,37.6768511,,
