storeid,searchid,wide_area,basic_area,keyword,storename,category,rating,review_cnt,address,url,img_url,visit_type,lng,lat,review_participant,honbab_cnt
93_1,93,경기도,덕양구,경기도 덕양구 숙소,어반이스트 호텔,3급,,189,경기 고양시 덕양구 고양대로 1725 어반이스트 호텔,https://map.naver.com/p/entry/place/1037430960?placePath=%2Fhome,https://search.pstatic.net/common/?autoRotate=true&type=w560_sharpen&src=https%3A%2F%2Fldb-phinf.pstatic.net%2F20220208_4%2F1644296717523IDNAj_JPEG%2FP__MG_6233-HDR.jpg,혼숙,126.8740428,37.6483216,,
93_2,93,경기도,덕양구,경기도 덕양구 숙소,호텔 더 윈,2성급,4.63,460,경기 고양시 덕양구 원흥3로 6-14 호텔 더 윈,https://map.naver.com/p/entry/place/1314670237?placePath=%2Fhome,https://search.pstatic.net/common/?autoRotate=true&type=w560_sharpen&src=https%3A%2F%2Fldb-phinf.pstatic.net%2F20200908_184%2F15995314457429tX8t_JPEG%2FZQBEQcTXiD_Xap2A7JWDYEcP.jpg,혼숙,126.8752658,37.6477746,,
93_3,93,경기도,덕양구,경기도 덕양구 숙소,북한산 사기막야영장,"캠핑,야영장",,42,경기 고양시 덕양구 북한산로618번길 130,https://map.naver.com/p/entry/place/1069441862?placePath=%2Fhome,https://search.pstatic.net/common/?autoRotate=true&type=w560_sharpen&src=https%3A%2F%2Fldb-phinf.pstatic.net%2F20240328_207%2F1711587818790vjpBw_JPEG%2F%25BB%25E7%25B1%25E2%25B8%25B7_%25BE%25DF%25BF%25B5%25C0%25E5_%25BE%25C8%25B3%25BB%25B5%25B5.jpg,혼숙,126.9670554,37.6760490,,
93_4,93,경기도,덕양구,경기도 덕양구 숙소,케이하우스,펜션,4.82,178,경기 고양시 덕양구 북한산로387번길 103,https://map.naver.com/p/entry/place/37033465?placePath=%2Fhome,https://search.pstatic.net/common/?autoRotate=true&type=w560_sharpen&src=https%3A%2F%2Fldb-phinf.pstatic.net%2F20250629_89%2F1751137922625gchzT_JPEG%2F1000011526.jpg,혼숙,126.9508671,37.6648743,,
93_5,93,경기도,덕양구,경기도 덕양구 숙소,고양호텔유지,2급,,154,경기 고양시 덕양구 충장로 23 호텔 유지,https://map.naver.com/p/entry/place/1092857368?placePath=%2Fhome,https://search.pstatic.net/common/?autoRotate=true&type=w560_sharpen&src=https%3A%2F%2Fldb-phinf.pstatic.net%2F20220325_66%2F1648215647950QpC7b_PNG%2FYUJI%25C6%25F9%25C6%25AE%25BB%25F9%25C7%25C3_%25C3%25D6%25C1%25BE_1.png,혼숙,126.8340398,37.6149650,,
93_6,93,경기도,덕양구,경기도 덕양구 숙소,서삼릉청소년야영장,"캠핑,야영장",4.27,987,경기 고양시 덕양구 서삼릉길 107-62,https://map.naver.com/p/entry/place/13419378?placePath=%2Fhome,https://search.pstatic.net/common/?autoRotate=true&type=w560_sharpen&src=https%3A%2F%2Fldb-phinf.pstatic.net%2F20250731_46%2F1753939959201YNjUI_JPEG%2F2025%25B3%25E2_9%25BF%25F9_%25C4%25B6%25B8%25B0%25B4%25F5.jpg,혼숙,,,,
93_7,93,경기도,덕양구,경기도 덕양구 숙소,스테이월호텔,2급,4.12,110,경기 고양시 덕양구 고양대로 1323 스테이월 호텔,https://map.naver.com/p/entry/place/38491538?placePath=%2Fhome,https://search.pstatic.net/common/?autoRotate=true&type=w560_sharpen&src=https%3A%2F%2Fldb-phinf.pstatic.net%2F20250217_86%2F1739779821091pnoY7_PNG%2F005.png,혼숙,126.8314527,37.6562069,,
93_8,93,경기도,덕양구,경기도 덕양구 숙소,노블레스 호텔,호텔,,9,경기 고양시 덕양구 마상로134번길 109,https://map.naver.com/p/entry/place/1037067989?placePath=%2Fhome,https://search.pstatic.net/common/?autoRotate=true&type=w560_sharpen&src=https%3A%2F%2Fnaverbooking-phinf.pstatic.net%2F20240702_260%2F1719879854201RnE1m_JPEG%2F01_CZ9A0005-2.jpg,혼숙,126.8335386,37.6559380,,
93_9,93,경기도,덕양구,경기도 덕양구 숙소,북한산농바위캠핑장,"캠핑,야영장",4.37,53,경기 고양시 덕양구 북한산로387번길 180,https://map.naver.com/p/entry/place/1834926269?placePath=%2Fhome,https://search.pstatic.net/common/?autoRotate=true&type=w560_sharpen&src=https%3A%2F%2Fldb-phinf.pstatic.net%2F20181213_270%2F1544690999285rpq7W_JPEG%2FE9IFGAapLMHRbsrIvbu7wJJj.jpg,혼숙,126.9499523,37.6675455,,
93_10,93,경기도,덕양구,경기도 덕양구 숙소,페이지호텔,3급,,29,경기 고양시 덕양구 화신로 271 페이지호텔,https://map.naver.com/p/entry/place/1645824076?placePath=%2Fhome,https://search.pstatic.net/common/?autoRotate=true&type=w560_sharpen&src=https%3A%2F%2Fnaverbooking-phinf.pstatic.net%2F20230314_150%2F1678793380075V7VVR_JPEG%2F__%25282%2529.jpg,혼숙,126.8312411,37.6308388,,
93_11,93,경기도,덕양구,경기도 덕양구 숙소,호텔 린,호텔,,8,경기 고양시 덕양구 혜음로 208 호텔 린,https://map.naver.com/p/entry/place/1284746953?placePath=%2Fhome,https://search.pstatic.net/common/?autoRotate=true&type=w560_sharpen&src=https%3A%2F%2Fldb-phinf.pstatic.net%2F20250507_63%2F17466071649931tTjj_PNG%2F728f8094-9123-4396-9948-39ff086d7648.png,혼숙,126.8995919,37.7186226,,
93_12,93,경기도,덕양구,경기도 덕양구 숙소,북한산 파인땡큐펜션,펜션,4.32,142,경기 고양시 덕양구 북한산로387번길 87-17,https://map.naver.com/p/entry/place/1190171906?placePath=%2Fhome,https://search.pstatic.net/common/?autoRotate=true&type=w560_sharpen&src=https%3A%2F%2Fldb-phinf.pstatic.net%2F20181210_90%2F1544410963877ScqGi_JPEG%2FIMG_0674.jpg,혼숙,126.9500574,37.6647076,,
93_13,93,경기도,덕양구,경기도 덕양구 숙소,원스테이 원당,모텔,,5,경기 고양시 덕양구 고양대로 1375 원스테이 원당,https://map.naver.com/p/entry/place/1810403826?placePath=%2Fhome,https://search.pstatic.net/common/?autoRotate=true&type=w560_sharpen&src=https%3A%2F%2Fldb-phinf.pstatic.net%2F20250804_33%2F1754262861323spTpG_JPEG%2FKakaoTalk_20250803_085912252_01.jpg,혼숙,126.8369972,37.6545354,,
93_14,93,경기도,덕양구,경기도 덕양구 숙소,모텔준,3급,4.27,264,경기 고양시 덕양구 화신로272번길 58 영프라자빌딩 7층,https://map.naver.com/p/entry/place/35603553?placePath=%2Fhome,https://search.pstatic.net/common/?autoRotate=true&type=w560_sharpen&src=https%3A%2F%2Fldb-phinf.pstatic.net%2F20250411_14%2F17443577805894Mnl2_JPEG%2F%25B8%25DE%25C0%25CE%25BD%25E6%25B3%25D7%25C0%25CF.jpg,혼숙,126.8317799,37.6337639,,
93_15,93,경기도,덕양구,경기도 덕양구 숙소,은지가족야영장,"캠핑,야영장",,18,경기 고양시 덕양구 흥도로 281-1,https://map.naver.com/p/entry/place/1994061038?placePath=%2Fhome,https://search.pstatic.net/common/?autoRotate=true&type=w560_sharpen&src=https%3A%2F%2Fldb-phinf.pstatic.net%2F20210530_17%2F1622338399155Pucgf_JPEG%2FYtByqHzs57YXW_Xgvfclk29b.jpg,혼숙,126.8574546,37.6311259,,
93_16,93,경기도,덕양구,경기도 덕양구 숙소,넘버25호텔 일산원당점,모텔,,29,경기 고양시 덕양구 고양시청로 30-6,https://map.naver.com/p/entry/place/1027858214?placePath=%2Fhome,https://search.pstatic.net/common/?autoRotate=true&type=w560_sharpen&src=https%3A%2F%2Fldb-phinf.pstatic.net%2F20210930_217%2F16329895766198HTgn_JPEG%2Fj0l3Om5ZKm3C2Z48TO2UX1G3.jpg,혼숙,126.8308900,37.6567650,,
93_17,93,경기도,덕양구,경기도 덕양구 숙소,볼호텔 화정역점,모텔,,10,경기 고양시 덕양구 화중로 96,https://map.naver.com/p/entry/place/19043448?placePath=%2Fhome,https://search.pstatic.net/common/?autoRotate=true&type=w560_sharpen&src=https%3A%2F%2Fldb-phinf.pstatic.net%2F20240318_204%2F1710749205496W42GS_JPEG%2F20240318_150429_5.jpg,혼숙,126.8319690,37.6355424,,
93_18,93,경기도,덕양구,경기도 덕양구 숙소,화정호텔,호텔,,21,경기 고양시 덕양구 화신로260번길 20,https://map.naver.com/p/entry/place/1946129929?placePath=%2Fhome,https://search.pstatic.net/common/?autoRotate=true&type=w560_sharpen&src=https%3A%2F%2Fldb-phinf.pstatic.net%2F20211209_295%2F163902360126381W26_JPEG%2F%25C8%25A3%25C5%25DA.jpg,혼숙,126.8326940,37.6315142,,
93_19,93,경기도,덕양구,경기도 덕양구 숙소,호텔야자 화정역점,모텔,4.18,29,경기 고양시 덕양구 화신로272번길 34,https://map.naver.com/p/entry/place/38624227?placePath=%2Fhome,https://search.pstatic.net/common/?autoRotate=true&quality=95&type=w750&src=https%3A%2F%2Fldb-phinf.pstatic.net%2F20200526_94%2F1590498725232gbLhC_JPEG%2FGd6UaXrNJuxvSILO2vmemReK.jpeg.jpg,혼숙,126.8315169,37.6323279,,
93_20,93,경기도,덕양구,경기도 덕양구 숙소,호텔넘버25,3급,,26,경기 고양시 덕양구 중앙로558번길 7-8,https://map.naver.com/p/entry/place/1222380025?placePath=%2Fhome,https://search.pstatic.net/common/?autoRotate=true&type=w560_sharpen&src=https%3A%2F%2Fldb-phinf.pstatic.net%2F20250319_259%2F1742351267116JlUpX_JPEG%2Ffc771f6954410268eeca754d49be436d.jpg,혼숙,126.8352830,37.6243530,,
93_21,93,경기도,덕양구,경기도 덕양구 숙소,트라움호텔,호텔,,5,경기 고양시 덕양구 고양시청로 31,https://map.naver.com/p/entry/place/1725254835?placePath=%2Fhome,https://search.pstatic.net/common/?autoRotate=true&type=w560_sharpen&src=https%3A%2F%2Fsearch.pstatic.net%2Fcommon%2F%3FautoRotate%3Dtrue%26quality%3D95%26type%3Dw750%26src%3Dhttps%253A%252F%252Fldb-phinf.pstatic.net%252F20250427_65%252F1745688404389R8B7C_JPEG%252F10bf78be1da8d31d9288eb5626c7e052.jpeg,혼숙,126.8310850,37.6566070,,
93_22,93,경기도,덕양구,경기도 덕양구 숙소,XYM호텔 고양일산점,2급,,10,경기 고양시 덕양구 고양시청로 30 XYM 고양일산점,https://map.naver.com/p/entry/place/1450958170?placePath=%2Fhome,https://search.pstatic.net/common/?autoRotate=true&type=w560_sharpen&src=https%3A%2F%2Fldb-phinf.pstatic.net%2F20211223_20%2F1640224288547FlguX_PNG%2F%25C8%25A3%25C5%25DA%25BF%25DC%25B0%25FC%25BB%25E7%25C1%25F8.PNG,혼숙,126.8311570,37.6566850,,
93_23,93,경기도,덕양구,경기도 덕양구 숙소,호텔 라엘르 고양일산 본점,3급,,8,경기 고양시 덕양구 고양시청로 30-14,https://map.naver.com/p/entry/place/1442275496?placePath=%2Fhome,https://search.pstatic.net/common/?autoRotate=true&type=w560_sharpen&src=https%3A%2F%2Fldb-phinf.pstatic.net%2F20220622_200%2F1655879775254UQiLE_JPEG%2F20220323_215901.jpg,혼숙,126.8306930,37.6568930,,
93_24,93,경기도,덕양구,경기도 덕양구 숙소,백운산장,산장,,1,경기 고양시 덕양구 북한산로384번길 19-40,https://map.naver.com/p/entry/place/19035756?placePath=%2Fhome,,혼숙,126.9810917,37.6584633,,
93_25,93,경기도,덕양구,경기도 덕양구 숙소,호텔첼시,모텔,4.31,133,경기 고양시 덕양구 고양대로 1325,https://map.naver.com/p/entry/place/18219992?placePath=%2Fhome,https://search.pstatic.net/common/?autoRotate=true&type=w560_sharpen&src=https%3A%2F%2Fldb-phinf.pstatic.net%2F20190410_270%2F1554861694248sI0AU_JPEG%2Fqo4phZdvpLB7L6sEryLYYs-_.jpg,혼숙,126.8315777,37.6561709,,
93_26,93,경기도,덕양구,경기도 덕양구 숙소,아망호텔,모텔,,15,경기 고양시 덕양구 원당로 117,https://map.naver.com/p/entry/place/33084800?placePath=%2Fhome,https://search.pstatic.net/common/?autoRotate=true&type=w560_sharpen&src=https%3A%2F%2Fldb-phinf.pstatic.net%2F20210705_108%2F1625463312772DrUXX_JPEG%2F07_CZ9A7995.JPG,혼숙,126.8384050,37.6622170,,
93_27,93,경기도,덕양구,경기도 덕양구 숙소,럭스호텔,모텔,3.38,34,경기 고양시 덕양구 호국로811번길 4,https://map.naver.com/p/entry/place/1972792908?placePath=%2Fhome,https://search.pstatic.net/common/?autoRotate=true&type=w560_sharpen&src=https%3A%2F%2Fldb-phinf.pstatic.net%2F20200415_70%2F1586949038093SNvmH_JPEG%2FdDG3xVEbYF6yihLr9uTDUX_X.jpeg.jpg,혼숙,126.8376380,37.6583670,,
93_28,93,경기도,덕양구,경기도 덕양구 숙소,카르마호텔,2급,,19,경기 고양시 덕양구 은빛로 55,https://map.naver.com/p/entry/place/18282278?placePath=%2Fhome,https://search.pstatic.net/common/?autoRotate=true&quality=95&type=w750&src=https%3A%2F%2Fldb-phinf.pstatic.net%2F20200219_233%2F1582081220686NlnT3_JPEG%2F4Cj-vAKwz0Pf6Td84vFOsPKa.jpeg.jpg,혼숙,126.8340530,37.6381530,,
93_29,93,경기도,덕양구,경기도 덕양구 숙소,프라자파크,모텔,4.09,74,경기 고양시 덕양구 화정로 53-1,https://map.naver.com/p/entry/place/18277699?placePath=%2Fhome,https://search.pstatic.net/common/?autoRotate=true&type=w560_sharpen&src=https%3A%2F%2Fldb-phinf.pstatic.net%2F20200504_272%2F1588558689815LFCHJ_JPEG%2FCp9HWTw96-t5OCrGdcdf2MHh.jpeg.jpg,혼숙,126.8323800,37.6352580,,
93_30,93,경기도,덕양구,경기도 덕양구 숙소,발리모텔,모텔,,22,경기 고양시 덕양구 원당로59번길 12,https://map.naver.com/p/entry/place/1658465887?placePath=%2Fhome,https://search.pstatic.net/common/?autoRotate=true&type=w560_sharpen&src=https%3A%2F%2Fldb-phinf.pstatic.net%2F20181211_252%2F1544511540841FJJ8U_JPEG%2FtaOxDQgp9ZBEzclTR6N5WP17.jpg,혼숙,126.8338700,37.6585000,,
93_31,93,경기도,덕양구,경기도 덕양구 숙소,마로니에하우스,민박,,13,경기 고양시 덕양구 서리골길36번길 54,https://map.naver.com/p/entry/place/1018336757?placePath=%2Fhome,https://search.pstatic.net/common/?autoRotate=true&type=w560_sharpen&src=https%3A%2F%2Fldb-phinf.pstatic.net%2F20230418_239%2F1681829978039YhjyW_JPEG%2FScreenshot_20230418_234541_Airbnb.jpg,혼숙,126.9073672,37.6887208,,
93_32,93,경기도,덕양구,경기도 덕양구 숙소,사이버호텔,모텔,,32,경기 고양시 덕양구 무원로6번길 35,https://map.naver.com/p/entry/place/11557236?placePath=%2Fhome,https://search.pstatic.net/common/?autoRotate=true&type=w560_sharpen&src=https%3A%2F%2Fsearch.pstatic.net%2Fcommon%2F%3FautoRotate%3Dtrue%26quality%3D95%26type%3Dw750%26src%3Dhttps%253A%252F%252Fldb-phinf.pstatic.net%252F20150831_35%252F1440995739694q6aVk_GIF%252F11557236_0.gif,혼숙,126.8333361,37.6142086,,
93_33,93,경기도,덕양구,경기도 덕양구 숙소,카사미아,모텔,4.46,27,경기 고양시 덕양구 화신로272번길 52 일산 카사미아,https://map.naver.com/p/entry/place/18276006?placePath=%2Fhome,https://search.pstatic.net/common/?autoRotate=true&type=w560_sharpen&src=https%3A%2F%2Fldb-phinf.pstatic.net%2F20200601_105%2F1590981851773qO0C8_JPEG%2F-dEThhHQLJVvk1Kcm_6dzIdb.jpeg.jpg,혼숙,126.8316629,37.6331479,,
93_34,93,경기도,덕양구,경기도 덕양구 숙소,제우스모텔,모텔,,2,경기 고양시 덕양구 호국로 809-1,https://map.naver.com/p/entry/place/18219988?placePath=%2Fhome,https://search.pstatic.net/common/?autoRotate=true&type=w560_sharpen&src=https%3A%2F%2Fsearch.pstatic.net%2Fcommon%2F%3FautoRotate%3Dtrue%26quality%3D95%26type%3Dw750%26src%3Dhttps%253A%252F%252Fldb-phinf.pstatic.net%252F20160603_139%252F1464960830554MpSWd_JPEG%252F176553626369889_0.jpeg,혼숙,126.8376380,37.6583670,,
93_35,93,경기도,덕양구,경기도 덕양구 숙소,마운틴95캠프,펜션,4.6,10,경기 고양시 덕양구 북한산로387번길 95,https://map.naver.com/p/entry/place/21529732?placePath=%2Fhome,https://search.pstatic.net/common/?autoRotate=true&type=w560_sharpen&src=https%3A%2F%2Fsearch.pstatic.net%2Fcommon%2F%3FautoRotate%3Dtrue%26quality%3D95%26type%3Dw750%26src%3Dhttps%253A%252F%252Fldb-phinf.pstatic.net%252F20171128_222%252F1511867798361nWmiv_JPEG%252F3537442017_4xMQcSR6_IMG_8495.jpeg,혼숙,126.9509509,37.6643950,,
93_36,93,경기도,덕양구,경기도 덕양구 숙소,빅토리아,모텔,3.96,33,경기 고양시 덕양구 화신로260번길 36 밀레니엄타워,https://map.naver.com/p/entry/place/18278055?placePath=%2Fhome,https://search.pstatic.net/common/?autoRotate=true&type=w560_sharpen&src=https%3A%2F%2Fldb-phinf.pstatic.net%2F20190430_209%2F1556612134874xuWpc_JPEG%2Frn8Hj8sKFzxv5Xr3pM6E6lmZ.jpg,혼숙,126.8328120,37.6321202,,
93_37,93,경기도,덕양구,경기도 덕양구 숙소,감나무골,한식,,2,경기 고양시 덕양구 행주산성로 75-19,https://map.naver.com/p/entry/place/19043797?placePath=%2Fhome,https://search.pstatic.net/common/?autoRotate=true&type=w560_sharpen&src=https%3A%2F%2Fsearch.pstatic.net%2Fcommon%2F%3FautoRotate%3Dtrue%26quality%3D95%26type%3Dw750%26src%3Dhttps%253A%252F%252Fldb-phinf.pstatic.net%252F20150831_214%252F1440996837351EAm5e_JPEG%252F146456536532974_0.jpeg,혼숙,126.8243528,37.5982838,,
93_38,93,경기도,덕양구,경기도 덕양구 숙소,제이제이모텔,모텔,,7,경기 고양시 덕양구 고양시청로 30-11,https://map.naver.com/p/entry/place/531309066?placePath=%2Fhome,https://search.pstatic.net/common/?autoRotate=true&quality=95&type=w750&src=https%3A%2F%2Fldb-phinf.pstatic.net%2F20200418_168%2F1587211262781w1cjx_JPEG%2FsKT68oyr9ObgKTiTFzslzDSv.jpeg.jpg,혼숙,126.8303430,37.6568920,,
93_39,93,경기도,덕양구,경기도 덕양구 숙소,목화장모텔,모텔,,1,경기 고양시 덕양구 고양시청로 4 목화장모텔,https://map.naver.com/p/entry/place/1396127268?placePath=%2Fhome,https://search.pstatic.net/common/?autoRotate=true&type=w560_sharpen&src=https%3A%2F%2Fldb-phinf.pstatic.net%2F20240213_20%2F1707831043981NQ0H1_JPEG%2F20240209_143316.jpg,혼숙,126.8334212,37.6573656,,
93_40,93,경기도,덕양구,경기도 덕양구 숙소,라움호텔,모텔,,9,경기 고양시 덕양구 원당로69번길 7,https://map.naver.com/p/entry/place/37369359?placePath=%2Fhome,https://search.pstatic.net/common/?autoRotate=true&type=w560_sharpen&src=https%3A%2F%2Fldb-phinf.pstatic.net%2F20250319_113%2F1742351248733s2tz2_JPEG%2Fabed986a9211447d7db7e3bfaf2152dc.jpg,혼숙,126.8344336,37.6591700,,
93_41,93,경기도,덕양구,경기도 덕양구 숙소,로얄모텔,모텔,4.57,28,경기 고양시 덕양구 토당로 86,https://map.naver.com/p/entry/place/35823665?placePath=%2Fhome,,혼숙,126.8183520,37.6228300,,
93_42,93,경기도,덕양구,경기도 덕양구 숙소,유명파크모텔,모텔,,1,경기 고양시 덕양구 마상로 114 (주교동 579-2) 유명파크모텔,https://map.naver.com/p/entry/place/38217588?placePath=%2Fhome,https://search.pstatic.net/common/?autoRotate=true&quality=95&type=w750&src=https%3A%2F%2Fldb-phinf.pstatic.net%2F20200304_203%2F15833276335892Dq4h_JPEG%2FlfDa12s-rweJitHDDrSmDmVo.jpeg.jpg,혼숙,126.8357491,37.6604583,,
93_43,93,경기도,덕양구,경기도 덕양구 숙소,동그라미모텔,모텔,4,29,경기 고양시 덕양구 동헌로9번길 8,https://map.naver.com/p/entry/place/18255857?placePath=%2Fhome,,혼숙,126.8596619,37.7048351,,
93_44,93,경기도,덕양구,경기도 덕양구 숙소,삐에로모텔,모텔,,19,경기 고양시 덕양구 통일로 732,https://map.naver.com/p/entry/place/19040138?placePath=%2Fhome,,혼숙,126.8690483,37.6876735,,
93_45,93,경기도,덕양구,경기도 덕양구 숙소,이든호텔,모텔,,14,경기 고양시 덕양구 마상로140번길 11,https://map.naver.com/p/entry/place/1701655258?placePath=%2Fhome,https://search.pstatic.net/common/?autoRotate=true&type=w560_sharpen&src=https%3A%2F%2Fldb-phinf.pstatic.net%2F20200416_163%2F1587028552090L4gGm_JPEG%2Fwo-vBAW4eWFXi_9UyqsCpkp8.jpeg.jpg,혼숙,126.8377730,37.6589070,,
93_46,93,경기도,덕양구,경기도 덕양구 숙소,산드라모텔,모텔,,17,경기 고양시 덕양구 통일로 738,https://map.naver.com/p/entry/place/18258645?placePath=%2Fhome,,혼숙,126.8680575,37.6878720,,
93_47,93,경기도,덕양구,경기도 덕양구 숙소,에버빌모텔,모텔,,14,경기 고양시 덕양구 토당로 82,https://map.naver.com/p/entry/place/1253072621?placePath=%2Fhome,https://search.pstatic.net/common/?autoRotate=true&type=w560_sharpen&src=https%3A%2F%2Fldb-phinf.pstatic.net%2F20250319_3%2F1742348880024iEE4I_JPEG%2F0a153156fa4984b5180fc4f416cc508b.jpg,혼숙,126.8184050,37.6225350,,
93_48,93,경기도,덕양구,경기도 덕양구 숙소,고양스타민박,펜션,,2,경기 고양시 덕양구 고양대로2002번길 70-62,https://map.naver.com/p/entry/place/1633383543?placePath=%2Fhome,https://search.pstatic.net/common/?autoRotate=true&type=w560_sharpen&src=https%3A%2F%2Fldb-phinf.pstatic.net%2F20180912_135%2F1536731772216vaui0_JPEG%2FhW7F-jBL2E7C7p1JHL7WRzt3.jpg,혼숙,126.8991950,37.6421185,,
93_49,93,경기도,덕양구,경기도 덕양구 숙소,세부플라밍고,게스트하우스,,1,경기 고양시 덕양구 화중로 32-31,https://map.naver.com/p/entry/place/1617645723?placePath=%2Fhome,https://search.pstatic.net/common/?autoRotate=true&type=w560_sharpen&src=https%3A%2F%2Fldb-phinf.pstatic.net%2F20190409_161%2F1554793883366G6hM6_JPEG%2FIMG_2697_00.jpg,혼숙,126.8319187,37.6299329,,
93_50,93,경기도,덕양구,경기도 덕양구 숙소,갤러리모텔,모텔,,6,경기 고양시 덕양구 읍내로6번길 1-19 갤러리모텔,https://map.naver.com/p/entry/place/1966077373?placePath=%2Fhome,https://search.pstatic.net/common/?autoRotate=true&type=w560_sharpen&src=https%3A%2F%2Fsearch.pstatic.net%2Fcommon%2F%3FautoRotate%3Dtrue%26quality%3D95%26type%3Dw750%26src%3Dhttps%253A%252F%252Fldb-phinf.pstatic.net%252F20230511_155%252F16837762848894hgCb_JPEG%252F1072F058-211A-4844-A4D3-8F1593BC69DA.jpeg,혼숙,126.9021716,37.7014287,,
